City,Cloudiness,Country,Date,Humidity,Lat,Lng,Max Temp,Wind Speed
East London,90,ZA,1579453770,88,-33.02,27.91,64.4,6.93
George Town,20,MY,1579453844,100,5.41,100.34,80.6,3.53
Busselton,0,AU,1579453829,42,-33.65,115.33,66.0,13.13
Prince Rupert,40,CA,1579454017,80,54.32,-130.32,39.2,11.41
Ribeira Grande,75,PT,1579454018,82,38.52,-28.7,66.2,16.11
Porto-Novo,20,BJ,1579454018,70,6.5,2.6,87.8,8.05
Rikitea,34,PF,1579454018,80,-23.12,-134.97,77.88,14.14
Esperance,3,AU,1579454018,76,-33.87,121.9,57.2,6.93
Mosquera,75,CO,1579453790,55,4.71,-74.23,64.4,8.05
Flin Flon,20,CA,1579454018,75,54.77,-101.86,-18.4,5.59
Radhanpur,38,IN,1579454018,27,23.83,71.6,59.11,10.83
Butaritari,47,KI,1579454018,79,3.07,172.79,83.86,11.05
Ponta do Sol,40,PT,1579454019,82,32.67,-17.1,66.2,12.75
Fortuna,1,US,1579454019,93,40.6,-124.16,41.0,2.46
Kidal,0,ML,1579454019,19,18.44,1.41,68.61,8.68
Sao Filipe,5,CV,1579454019,74,14.9,-24.5,71.85,7.96
Port Lincoln,37,AU,1579454019,73,-34.73,135.87,61.9,17.22
Mar del Plata,0,AR,1579453877,33,-38.0,-57.56,96.01,11.41
Saint-Philippe,91,RE,1579454019,83,-21.36,55.77,80.6,2.24
Vitim,7,RU,1579454019,98,59.45,112.56,-11.04,5.39
Hilo,90,US,1579454020,64,19.73,-155.09,73.4,6.93
Tiksi,100,RU,1579454020,91,71.69,128.87,-2.96,7.18
Bandarbeyla,53,SO,1579454020,75,9.49,50.81,76.95,20.87
Visnes,75,NO,1579454020,93,59.36,5.22,45.0,9.17
Tigil,93,RU,1579454020,94,57.8,158.67,9.0,14.05
Klaksvik,100,FO,1579454020,100,62.23,-6.59,46.4,3.36
Upernavik,27,GL,1579454020,93,72.79,-56.15,-17.46,4.21
New Norfolk,75,AU,1579454021,76,-42.78,147.06,59.0,1.45
Saint-Joseph,92,RE,1579454021,83,-21.37,55.62,80.6,2.24
Jalu,66,LY,1579454021,56,29.03,21.55,58.32,8.03
Punta Arenas,20,CL,1579453837,44,-53.15,-70.92,57.2,38.03
Bambous Virieux,75,MU,1579454003,88,-20.34,57.76,81.0,3.36
Castro,22,BR,1579454021,41,-24.79,-50.01,83.68,2.64
Katherine,75,AU,1579454021,78,-14.47,132.27,82.4,11.41
Bartica,75,GY,1579454022,70,6.4,-58.62,86.0,13.87
Atuona,22,PF,1579454022,72,-9.8,-139.03,80.89,14.41
Mataura,100,NZ,1579454022,97,-46.19,168.86,54.0,1.99
Danane,9,CI,1579454022,21,7.26,-8.15,84.76,2.77
Qaqortoq,27,GL,1579454022,41,60.72,-46.03,19.4,5.82
Kisangani,75,CD,1579453858,67,0.52,25.2,78.39,1.39
Kirakira,13,SB,1579454022,83,-10.45,161.92,75.74,4.21
Albany,90,US,1579454022,74,42.6,-73.97,39.0,20.8
Saint-Francois,75,FR,1579454023,69,46.42,3.91,39.0,10.29
Uige,81,AO,1579454023,95,-7.61,15.06,70.09,1.25
Progreso,75,MX,1579454023,65,21.28,-89.67,82.0,4.7
Grindavik,75,IS,1579454023,87,63.84,-22.43,42.8,33.33
Hermanus,100,ZA,1579454023,98,-34.42,19.23,66.99,8.01
Olafsvik,81,IS,1579454023,75,64.89,-23.71,40.17,34.25
Alta Floresta,40,BR,1579454023,63,-9.88,-56.09,91.4,3.36
Khatanga,100,RU,1579454024,98,71.97,102.5,-23.17,4.63
Bredasdorp,100,ZA,1579454024,82,-34.53,20.04,64.4,19.46
Tabuk,42,PH,1579454024,92,17.42,121.44,67.71,2.8
Chui,24,UY,1579453880,42,-33.7,-53.46,84.76,7.05
Ushuaia,75,AR,1579454024,71,-54.8,-68.3,50.0,27.51
Buala,16,SB,1579454024,84,-8.14,159.59,78.71,7.45
Matay,2,EG,1579454024,59,28.42,30.78,49.15,5.79
Camacha,75,PT,1579454024,82,33.08,-16.33,66.2,13.87
Hirson,2,FR,1579454025,86,49.92,4.08,41.0,8.05
Clyde River,20,CA,1579454025,67,70.47,-68.59,-22.0,10.29
Laguna,90,US,1579454025,87,38.42,-121.42,43.0,4.09
Ahipara,0,NZ,1579454025,100,-35.17,173.17,60.01,3.0
Hobart,75,AU,1579454025,76,-42.88,147.33,59.0,1.66
Rio Gallegos,20,AR,1579454025,25,-51.62,-69.22,64.4,38.03
Los Llanos de Aridane,76,ES,1579454025,68,28.66,-17.92,69.01,11.41
Thompson,20,CA,1579453827,82,55.74,-97.86,-16.6,6.93
Juneau,90,US,1579454026,85,58.3,-134.42,26.6,6.49
Geraldton,75,AU,1579454026,68,-28.77,114.6,71.6,20.8
Honiara,20,SB,1579454026,94,-9.43,159.95,75.2,3.36
Hambantota,39,LK,1579454026,81,6.12,81.12,80.87,21.7
Nelson Bay,75,AU,1579454026,94,-32.72,152.15,71.01,6.93
Ereymentau,99,KZ,1579454026,99,51.62,73.1,0.14,1.39
Vaini,40,TO,1579454026,88,-21.2,-175.2,77.0,6.93
Hong Kong,40,HK,1579454002,72,22.29,114.16,62.01,5.82
Cabo San Lucas,5,MX,1579453901,60,22.89,-109.91,75.0,5.23
Kahului,40,US,1579454027,64,20.89,-156.47,69.8,6.93
Arraial do Cabo,40,BR,1579454027,65,-22.97,-42.03,82.4,9.17
Kudahuvadhoo,59,MV,1579454027,79,2.67,72.89,83.01,13.71
Okhotsk,0,RU,1579454027,69,59.38,143.3,-21.35,7.67
Caravelas,66,BR,1579454027,79,-17.71,-39.25,80.46,10.2
Kang,49,BW,1579454027,34,-23.68,22.79,83.34,5.06
San Fernando,40,PH,1579454028,83,15.03,120.69,78.8,4.7
Beira,98,MZ,1579454028,77,-19.84,34.84,84.87,15.88
Kapaa,40,US,1579454028,77,22.08,-159.32,73.4,9.01
Tuktoyaktuk,5,CA,1579454028,68,69.45,-133.04,-18.4,8.05
Bethel,75,US,1579454028,59,41.37,-73.41,45.0,16.11
Tasiilaq,100,GL,1579454028,92,65.61,-37.64,30.2,23.04
Saskylakh,99,RU,1579454028,97,71.92,114.08,-20.34,3.98
Mallaig,64,CA,1579454028,92,54.22,-111.37,-7.64,12.84
Sfantu Gheorghe,0,RO,1579454028,80,45.87,25.78,28.99,1.99
Port Elizabeth,90,ZA,1579454029,68,-33.92,25.57,66.2,17.22
Nikolskoye,90,RU,1579454029,80,59.7,30.79,37.4,20.13
Barrow,90,US,1579454029,84,71.29,-156.79,3.2,3.36
Koslan,100,RU,1579454029,93,63.46,48.9,4.53,8.03
Quatre Cocos,75,MU,1579454029,88,-20.21,57.76,81.0,3.36
Hibbing,75,US,1579454029,78,47.43,-92.94,12.2,6.93
Jamestown,90,US,1579454029,92,42.1,-79.24,23.0,19.46
Lavrentiya,100,RU,1579454029,96,65.58,-171.0,5.18,8.46
Lamu,50,KE,1579454030,81,-2.27,40.9,81.5,19.08
Havre-Saint-Pierre,90,CA,1579454030,77,50.23,-63.6,6.8,13.87
Rorvik,40,NO,1579454030,65,64.86,11.24,41.0,13.87
Makakilo City,75,US,1579454030,72,21.35,-158.09,72.0,3.36
Qaanaaq,0,GL,1579454030,62,77.48,-69.36,-17.25,7.02
'Ewa Beach,75,US,1579454030,60,21.32,-158.01,72.0,11.41
Tizimin,5,MX,1579454030,58,21.15,-88.15,82.4,9.17
Aksay,40,RU,1579454030,79,47.26,39.87,28.4,6.71
Cape Town,75,ZA,1579454031,68,-33.93,18.42,71.01,21.92
Provideniya,100,RU,1579454031,96,64.38,-173.3,0.41,9.4
Lompoc,90,US,1579454031,61,34.64,-120.46,59.0,8.05
Palmer,40,US,1579454031,60,42.16,-72.33,41.0,11.41
Longyearbyen,90,SJ,1579453868,86,78.22,15.64,28.4,19.46
Port Hardy,75,CA,1579454031,93,50.7,-127.42,44.6,21.92
Beidao,44,CN,1579454031,45,34.57,105.89,27.03,1.07
San Andres,75,CO,1579454031,70,12.58,-81.7,84.2,19.46
Nouakchott,0,MR,1579454032,10,18.09,-15.98,87.8,11.41
Kaitangata,83,NZ,1579454032,96,-46.28,169.85,55.0,5.99
Raudeberg,75,NO,1579454032,86,61.99,5.14,43.0,12.75
Pagani,40,IT,1579454032,54,40.75,14.61,54.0,8.05
Severo-Kuril'sk,7,RU,1579454032,78,50.68,156.12,8.91,5.59
Camabatela,100,AO,1579454032,97,-8.19,15.38,65.62,4.21
Tura,50,IN,1579454033,74,25.52,90.22,61.18,1.36
Naze,90,JP,1579454033,63,28.37,129.48,60.8,13.87
Ambon,74,ID,1579454033,80,-3.7,128.18,81.0,13.0
Greystones,52,IE,1579454033,73,53.14,-6.06,42.8,5.82
Zhanaozen,81,KZ,1579454033,93,43.3,52.8,27.32,8.88
Lorengau,21,PG,1579454033,76,-2.02,147.27,83.62,18.95
Kodiak,75,US,1579454031,68,57.79,-152.41,30.2,18.34
Baykit,100,RU,1579454034,98,61.67,96.37,-1.66,1.92
Hamilton,90,US,1579453772,61,39.18,-84.53,19.99,11.41
Nanortalik,96,GL,1579454034,56,60.14,-45.24,25.75,20.76
Tabas,54,IR,1579454034,71,33.6,56.92,50.0,6.93
Senneterre,40,CA,1579454034,77,48.38,-77.23,1.4,10.29
Bathsheba,20,BB,1579454034,51,13.22,-59.52,84.2,27.51
Cabedelo,40,BR,1579454034,52,-6.98,-34.83,87.8,17.22
Chapayevka,0,UA,1579454034,82,47.47,36.35,28.69,6.69
Aban,100,RU,1579454035,90,56.67,96.06,18.19,17.67
Teya,100,RU,1579454035,97,60.38,92.63,0.27,4.16
Norman Wells,20,CA,1579454035,69,65.28,-126.83,-9.4,10.29
Sambava,100,MG,1579454035,97,-14.27,50.17,75.31,2.04
Atasu,100,KZ,1579454035,92,48.68,71.64,13.19,6.17
Luderitz,0,NA,1579454035,56,-26.65,15.16,73.4,21.92
Sawtell,40,AU,1579454035,83,-30.38,153.1,77.0,14.99
Baoying,100,CN,1579454035,99,33.23,119.31,46.0,1.99
Muli,61,MV,1579454036,79,2.92,73.57,82.11,12.73
Woodbury,1,US,1579454036,64,42.38,-96.03,1.4,17.22
Araouane,0,ML,1579454036,15,18.9,-3.53,70.25,5.97
Vao,7,NC,1579454036,74,-22.67,167.48,75.07,14.27
San Buenaventura,90,MX,1579454036,61,27.08,-101.53,50.0,9.33
Leningradskiy,100,RU,1579454036,99,69.38,178.42,-6.72,10.02
Souillac,75,MU,1579454036,88,-20.52,57.52,81.0,3.36
Saldanha,77,ZA,1579454037,44,-33.01,17.94,77.0,18.34
Cervo,7,ES,1579454037,61,43.67,-7.41,51.01,13.0
Olinda,20,BR,1579454037,62,-8.01,-34.86,86.0,11.41
Talaya,100,RU,1579454037,100,61.38,152.75,-28.89,0.6
Mercedes,39,AR,1579454037,54,-34.65,-59.43,91.99,4.0
Yellowknife,5,CA,1579454037,74,62.46,-114.35,-22.0,8.05
Santa Cruz de Tenerife,72,ES,1579454037,67,28.47,-16.25,71.01,8.05
Te Anau,69,NZ,1579454037,96,-45.42,167.72,54.09,1.41
Berlevag,0,NO,1579454037,71,70.86,29.09,23.0,16.11
Monte Alegre,100,BR,1579454038,65,-2.01,-54.07,87.46,1.21
Dawei,46,MM,1579454038,65,14.08,98.2,80.37,3.29
Maun,20,BW,1579454038,34,-19.98,23.42,93.2,1.12
Mezen,16,RU,1579454038,82,65.85,44.24,2.82,10.29
Nhulunbuy,40,AU,1579454038,79,-12.23,136.77,84.2,8.05
Dikson,81,RU,1579454038,90,73.51,80.55,-19.12,8.55
Mankono,0,CI,1579454038,15,8.06,-6.19,89.47,3.13
Kathu,20,TH,1579454039,83,7.92,98.33,78.8,3.36
Kingsport,20,US,1579453780,51,36.55,-82.56,37.0,8.05
Dingle,64,PH,1579454039,94,11.0,122.67,73.36,10.94
Bluff,98,NZ,1579454026,97,-46.6,168.33,54.0,1.99
Port Alfred,100,ZA,1579454039,82,-33.59,26.89,66.99,8.99
Torquay,0,GB,1579454039,8,50.46,-3.51,41.0,6.67
Quelimane,75,MZ,1579454039,79,-17.88,36.89,89.6,8.05
Taft,40,IR,1579454040,52,31.75,54.21,46.4,6.93
Jackson,90,US,1579454040,93,42.42,-122.83,37.4,2.24
Alofi,100,NU,1579453908,94,-19.06,-169.92,77.0,6.93
Guerrero Negro,0,MX,1579454040,28,27.98,-114.06,66.58,2.77
Katsuura,18,JP,1579454040,81,35.13,140.3,51.01,6.93
Padang,94,ID,1579454040,95,-0.95,100.35,69.26,3.96
Rakiv Lis,15,UA,1579454040,91,51.62,24.92,30.06,2.64
Torbay,75,CA,1579454040,66,47.67,-52.73,17.01,11.41
Ancud,0,CL,1579454040,55,-41.87,-73.82,62.6,13.87
Pitimbu,40,BR,1579454041,52,-7.47,-34.81,87.8,17.22
Miraflores,90,MX,1579454041,71,19.22,-98.81,71.6,6.93
Chowchilla,90,US,1579454041,87,37.12,-120.26,51.01,3.27
Arlit,0,NE,1579454041,16,18.74,7.39,70.54,7.72
Beisfjord,90,NO,1579454041,74,68.38,17.6,34.0,14.99
Ouango,100,CF,1579453865,26,4.31,22.56,78.91,1.92
Mutoko,100,ZW,1579454041,88,-17.4,32.23,70.77,4.29
Talnakh,75,RU,1579454042,82,69.49,88.4,-20.2,8.95
Tocopilla,100,CL,1579454042,32,-22.09,-70.2,77.49,11.79
Balkhash,100,KZ,1579454042,78,46.84,74.98,15.91,1.52
Rincon,90,US,1579453984,82,32.3,-81.24,62.01,12.75
Borovoy,40,RU,1579454042,77,55.43,86.08,6.8,11.18
Riyadh,25,SA,1579453808,42,24.69,46.72,64.4,6.93
Pagegiai,76,LT,1579454043,95,55.14,21.91,36.9,7.56
Polunochnoye,0,RU,1579454043,87,60.87,60.42,-3.55,1.77
Kavieng,29,PG,1579454043,75,-2.57,150.8,84.07,21.21
Mogadishu,29,SO,1579453798,79,2.04,45.34,80.24,26.33
Manggar,87,ID,1579454043,75,-2.88,108.27,81.91,5.12
Karratha,17,AU,1579454044,79,-20.74,116.85,84.58,14.34
Laas,36,IT,1579454044,24,46.62,10.7,42.8,5.82
Puerto Ayora,75,EC,1579454044,66,-0.74,-90.35,84.2,16.11
Hasaki,20,JP,1579454044,86,35.73,140.83,37.4,1.12
Bousse,3,BF,1579454044,15,12.66,-1.89,87.8,5.82
Ostrovnoy,0,RU,1579454045,83,68.05,39.51,7.47,9.48
Vila do Conde,0,PT,1579454045,47,41.35,-8.74,61.0,16.11
Otradnoye,90,RU,1579454045,80,59.78,30.82,37.4,20.13
Margate,2,GB,1579454045,80,51.38,1.39,44.01,3.36
Pacifica,75,US,1579454045,70,37.61,-122.49,51.01,9.17
Cayenne,75,GF,1579454046,83,4.93,-52.33,82.4,8.05
Puro,26,PH,1579454046,85,12.48,123.38,76.87,14.34
Dickson,1,US,1579453845,45,36.08,-87.39,37.0,16.11
Marsh Harbour,63,BS,1579454046,70,26.54,-77.06,73.72,13.89
Muisne,75,EC,1579454046,100,0.6,-80.03,78.8,6.93
Ust-Nera,100,RU,1579454046,100,64.57,143.2,-45.35,2.17
Namatanai,70,PG,1579454046,77,-3.67,152.43,82.33,9.08
Nuuk,100,GL,1579454046,78,64.18,-51.72,15.8,3.36
Saint-Pierre,92,RE,1579454046,83,-21.34,55.48,80.6,2.24
Verkhovazhye,100,RU,1579454047,97,60.75,42.05,32.45,7.99
Katangli,41,RU,1579454047,95,51.71,143.23,-4.86,3.87
Persianovskiy,40,RU,1579454047,79,47.51,40.11,28.4,6.71
Sembe,90,CG,1579454047,67,1.65,14.58,76.51,1.1
Carnarvon,0,AU,1579454047,74,-24.87,113.63,78.8,19.46
Mandalgovi,0,MN,1579454047,76,45.76,106.27,1.45,11.34
Ghugus,47,IN,1579454048,60,19.93,79.13,71.71,5.17
Tiarei,40,PF,1579454048,78,-17.53,-149.33,80.01,2.24
Luau,55,AO,1579454048,91,-10.71,22.22,68.2,4.72
Rach Gia,20,VN,1579454045,83,10.02,105.08,77.0,9.17
Karibib,0,NA,1579454048,35,-21.93,15.83,71.44,14.38
Pevek,100,RU,1579454048,98,69.7,170.31,-4.74,6.58
Cidreira,0,BR,1579454049,80,-30.18,-50.21,74.97,23.2
Khovd,100,MN,1579454049,61,48.01,91.64,8.4,5.1
Salalah,20,OM,1579453854,60,17.02,54.09,75.2,4.7
Avarua,100,CK,1579454049,88,-21.21,-159.78,77.0,13.87
Faanui,80,PF,1579454049,81,-16.48,-151.75,80.98,12.1
The Valley,75,AI,1579453967,65,18.22,-63.06,80.6,18.34
Campohermoso,75,ES,1579454049,71,36.94,-2.13,55.99,6.93
Jieshi,0,CN,1579454049,71,22.81,115.83,57.99,1.01
Kavaratti,77,IN,1579454049,80,10.57,72.64,81.23,13.22
Kargil,51,IN,1579454050,97,34.57,76.1,-21.12,1.23
Roebourne,88,AU,1579454050,52,-20.78,117.13,86.63,5.99
Abu Kamal,67,SY,1579454050,56,34.45,40.92,55.99,9.66
Boa Vista,75,BR,1579454050,43,2.82,-60.67,91.4,18.34
Anshun,64,CN,1579454050,75,26.25,105.93,43.3,3.71
San Juan,37,AR,1579453843,21,-31.54,-68.54,98.46,5.91
Praia,8,CV,1579453845,32,14.92,-23.51,84.2,11.41
Superior,90,US,1579454050,66,46.72,-92.1,18.0,8.05
Shingu,7,JP,1579454050,70,33.73,135.98,47.17,8.03
Susanville,1,US,1579454051,92,40.42,-120.65,24.01,3.36
Sitka,90,US,1579454051,74,57.05,-135.33,37.4,20.8
Fukuecho,90,JP,1579454051,57,32.69,128.84,51.8,13.87
Ninh Binh,99,VN,1579454051,76,20.25,105.97,60.28,5.84
Pacific Grove,1,US,1579454051,75,36.62,-121.92,51.01,16.11
Isnos,99,CO,1579454051,94,1.94,-76.24,63.95,4.34
Samarai,96,PG,1579454051,82,-10.62,150.67,77.5,3.53
Karimnagar,19,IN,1579454052,69,18.43,79.15,70.77,2.08
Chokurdakh,98,RU,1579454052,100,70.63,147.92,-29.56,1.86
Mehamn,23,NO,1579454052,79,71.04,27.85,26.6,20.8
Iqaluit,75,CA,1579454052,64,63.75,-68.51,-4.0,9.17
Lagoa,41,PT,1579454053,80,39.05,-27.98,63.16,27.67
Barra do Garcas,75,BR,1579454050,62,-15.89,-52.26,87.8,11.41
Narsaq,14,GL,1579454053,41,60.92,-46.05,19.4,5.82
Bhadrak,0,IN,1579454053,61,21.06,86.51,68.49,2.04
Grand Gaube,75,MU,1579454053,88,-20.01,57.66,81.0,3.36
Bubaque,7,GW,1579454053,55,11.28,-15.83,79.21,11.01
Korla,3,CN,1579454053,82,41.76,86.15,11.48,7.83
Pangkalanbuun,69,ID,1579454053,95,-2.68,111.62,75.24,1.72
Weyler,64,PH,1579454054,84,12.19,124.4,77.65,14.29
Ayacucho,75,PE,1579454054,48,-13.16,-74.22,66.2,4.7
Codrington,100,AU,1579454054,88,-38.27,141.97,60.22,25.12
Huron,90,US,1579454054,78,41.15,-82.55,16.0,17.96
Changde,0,CN,1579454054,75,29.05,111.68,41.95,1.86
Port Blair,32,IN,1579454054,75,11.67,92.75,81.0,12.8
Manta,75,EC,1579453854,70,-0.95,-80.73,84.2,6.93
Yar-Sale,75,RU,1579454055,96,66.83,70.83,-9.53,11.45
Chumikan,0,RU,1579454055,89,54.72,135.31,-8.37,5.01
Nurota,99,UZ,1579454055,84,40.56,65.69,32.0,6.93
Praia,8,CV,1579454055,42,14.92,-23.51,82.4,12.75
Longyan,44,CN,1579454055,86,25.11,117.02,43.61,2.19
Pasighat,78,IN,1579454055,94,28.07,95.33,58.96,3.51
Touros,40,BR,1579454055,58,-5.2,-35.46,86.0,14.99
Marawi,24,PH,1579454055,86,8.0,124.29,77.0,3.0
Ljungby,0,SE,1579454055,89,56.83,13.94,37.4,3.36
Athens,40,GR,1579453921,76,37.98,23.72,48.2,6.93
Marathon,90,US,1579454056,79,44.9,-89.77,21.2,9.17
Atikokan,100,CA,1579454056,89,48.76,-91.62,11.91,3.65
Mahebourg,75,MU,1579454056,88,-20.41,57.7,81.0,3.36
Pimenta Bueno,68,BR,1579454056,59,-11.67,-61.19,89.91,4.34
Khategaon,21,IN,1579454056,51,22.6,76.92,57.15,7.18
Pinawa,100,CA,1579454056,91,50.15,-95.88,7.95,5.64
Kawardha,32,IN,1579454056,66,22.02,81.25,60.96,6.55
Honningsvag,20,NO,1579454057,79,70.98,25.97,26.6,29.97
Petropavlovsk-Kamchatsky,8,RU,1579454057,77,53.05,158.65,-0.4,11.18
Cooma,90,AU,1579454057,100,-36.23,149.13,57.2,5.82
Fare,78,PF,1579454057,81,-16.7,-151.02,80.82,12.75
Roald,40,NO,1579454057,70,62.58,6.13,44.01,18.34
Barcelona,40,ES,1579454057,23,41.39,2.16,53.01,31.09
Pisco,75,PE,1579454057,30,-13.7,-76.22,73.99,9.17
Harper,83,LR,1579454058,79,4.38,-7.72,81.3,5.3
Altay,100,CN,1579454058,86,47.87,88.12,11.12,2.95
Radnevo,90,BG,1579453822,65,42.3,25.93,41.0,9.17
College,1,US,1579454058,73,64.86,-147.8,-23.8,1.54
Kommunisticheskiy,22,RU,1579454058,97,61.68,64.48,-4.07,5.55
Gamba,66,GA,1579454058,74,-2.65,10.0,80.53,4.07
Peniche,20,PT,1579453899,54,39.36,-9.38,60.8,16.11
Fairbanks,1,US,1579453832,73,64.84,-147.72,-23.8,1.95
Fayaoue,3,NC,1579454058,74,-20.65,166.53,77.67,11.65
Hualmay,8,PE,1579454059,57,-11.1,-77.61,80.11,12.17
Arrondissement de Langres,63,FR,1579454059,87,47.83,5.33,39.2,12.75
Sinnamary,18,GF,1579454059,82,5.38,-52.95,79.36,17.29
Dig,0,IN,1579454059,57,27.47,77.33,48.7,3.87
Bengkulu,100,ID,1579454059,91,-3.8,102.27,74.52,2.95
Melfi,75,IT,1579454060,70,41.0,15.65,48.2,9.17
Mount Pleasant,90,US,1579454060,87,32.79,-79.86,61.0,10.65
Macao,40,MO,1579453910,77,22.2,113.55,61.0,14.99
Tall Kayf,75,TR,1579454060,93,37.08,41.07,44.6,4.7
Sept-Iles,90,CA,1579454060,70,50.2,-66.38,7.0,12.75
Tyukhtet,100,RU,1579454060,92,56.54,89.3,2.7,11.3
Linares,39,CL,1579454060,12,-35.85,-71.6,100.49,5.57
Puerto Quijarro,47,BO,1579453864,40,-17.78,-57.77,98.53,3.13
Taoudenni,0,ML,1579454061,18,22.68,-3.98,65.82,4.25
Aasiaat,100,GL,1579454061,87,68.71,-52.87,3.4,8.57
Port Augusta,90,AU,1579454061,82,-32.5,137.77,62.6,10.29
Mareeba,88,AU,1579454061,83,-17.0,145.43,78.8,5.82
Pailon,75,BO,1579454061,59,-17.65,-62.75,91.4,13.87
Kattivakkam,20,IN,1579454061,74,13.22,80.32,78.8,4.7
Rafai,64,CF,1579454061,27,4.95,23.92,76.71,2.33
Erdenet,82,MN,1579454061,75,49.03,104.08,-4.59,5.59
Camana,93,PE,1579454062,71,-16.62,-72.71,72.9,12.28
La Ronge,5,CA,1579454062,75,55.1,-105.28,-18.4,3.13
Cabra,65,ES,1579454062,50,37.47,-4.44,53.6,12.75
Constitucion,30,CL,1579454062,60,-35.33,-72.42,68.45,5.55
Yagoua,0,CM,1579454062,21,10.34,15.23,79.32,10.16
Ati,0,TD,1579454062,21,13.22,18.34,75.76,10.47
Balikpapan,40,ID,1579453776,88,-1.27,116.83,80.6,2.24
Ranfurly,63,NZ,1579454062,95,-45.13,170.1,55.99,0.43
Waipawa,77,NZ,1579454063,100,-41.41,175.52,64.0,12.75
Saint George,1,US,1579454063,64,37.1,-113.58,51.8,6.93
Agua Prieta,1,MX,1579454063,39,31.3,-109.57,59.0,4.97
Kitale,0,KE,1579454063,62,1.02,35.01,62.42,1.81
Sainte-Maxime,100,FR,1579454063,93,43.3,6.63,53.01,4.16
Krasnosel'kup,100,RU,1579454063,98,65.7,82.47,-7.71,9.55
Kruisfontein,100,ZA,1579454064,83,-34.0,24.73,61.88,21.43
Manaure,20,CO,1579454064,49,11.78,-72.44,89.6,20.8
Bilma,0,NE,1579454064,28,18.69,12.92,63.82,7.25
Yiyang,0,CN,1579454064,77,28.59,112.33,42.4,2.21
Belaya Gora,98,RU,1579454064,97,68.53,146.42,-24.65,3.13
Aklavik,5,CA,1579454064,74,68.22,-135.01,-14.8,5.82
Husavik,90,IS,1579454064,77,66.04,-17.34,42.8,43.62
Awjilah,66,LY,1579454065,56,29.11,21.29,58.32,8.03
San Matias,95,BO,1579454065,52,-16.37,-58.4,91.62,6.93
Nikki,0,BJ,1579454065,16,9.94,3.21,83.46,4.52
Carnot,75,CF,1579454065,22,4.94,15.87,81.1,5.99
Wanning,27,CN,1579454065,84,18.8,110.4,68.32,6.26
Tarazona,44,ES,1579454065,52,41.9,-1.73,43.0,24.16
Yatou,0,CN,1579454065,50,37.15,122.38,34.25,11.39
Westport,1,US,1579453989,52,41.14,-73.36,45.0,10.29
Caramay,1,PH,1579454066,89,10.18,119.24,73.54,5.79
Cherskiy,100,RU,1579454066,98,68.75,161.3,-21.91,5.88
Nuevo Progreso,100,MX,1579454066,89,23.17,-97.95,64.99,10.0
Ilo,12,PE,1579454066,88,-17.64,-71.34,72.05,0.76
Turukhansk,100,RU,1579454066,98,65.82,87.98,-16.37,1.03
Hithadhoo,10,MV,1579454066,75,-0.6,73.08,83.16,8.39
Dhali,20,IN,1579454066,65,10.5,77.17,77.0,4.7
Lodja,97,CD,1579454066,80,-3.48,23.43,72.61,1.21
Ilulissat,100,GL,1579454067,85,69.22,-51.1,12.2,16.11
Naco,1,MX,1579454067,39,31.33,-109.95,59.0,4.7
Verkhoyansk,95,RU,1579454067,85,67.54,133.38,-23.91,2.71
Malazgirt,88,TR,1579454067,95,39.14,42.54,16.34,2.1
Ketchikan,90,US,1579454067,93,55.34,-131.65,42.8,23.04
Egvekinot,96,RU,1579454067,95,66.32,-179.17,-14.46,11.92
Christchurch,99,NZ,1579453773,93,-43.53,172.63,59.0,2.24
Mokhotlong,82,LS,1579454067,80,-29.29,29.07,51.12,7.36
Kazlu Ruda,90,LT,1579454068,80,54.77,23.5,39.2,6.93
Mwense,65,ZM,1579454068,96,-10.38,28.7,67.55,5.46
Airai,68,TL,1579454068,83,-8.93,125.41,67.35,5.32
Khotiv,90,UA,1579454028,92,50.33,30.47,30.2,4.47
Ascension,1,US,1579454068,27,30.22,-90.9,54.0,12.75
Jauja,100,PE,1579454068,60,-11.78,-75.5,54.19,6.85
Kiunga,99,PG,1579454068,99,-6.12,141.29,72.12,1.92
Sakakah,20,SA,1579454068,43,29.97,40.21,55.4,4.7
Assiut,0,EG,1579454069,44,27.18,31.18,59.0,13.87
Mogzon,7,RU,1579454069,94,51.74,111.96,-13.09,5.28
Bulgan,41,MN,1579454069,63,48.81,103.53,-1.48,5.06
Qasigiannguit,100,GL,1579454069,85,68.82,-51.19,12.2,16.11
Bassar,7,TG,1579454069,14,9.25,0.78,87.8,6.93
Inta,100,RU,1579454069,95,66.03,60.17,2.07,16.15
Rovaniemi,20,FI,1579454069,92,66.5,25.72,17.6,5.82
Sabang,22,ID,1579454069,79,5.89,95.32,82.81,13.04
Nioro,24,GM,1579454070,6,13.35,-15.75,96.94,6.91
Tete,40,MZ,1579454070,74,-16.16,33.59,84.2,4.7
Matara,82,LK,1579454070,90,5.95,80.54,75.4,7.38
Maceio,75,BR,1579453904,62,-9.67,-35.74,84.2,12.75
Amlapura,20,ID,1579454070,83,-8.45,115.62,82.4,6.93
Rio Grande,20,BR,1579454070,62,-32.03,-52.1,86.0,9.17
Marfino,90,RU,1579454070,92,55.7,37.38,34.0,11.18
Kurumkan,94,RU,1579454070,89,54.3,110.3,-10.5,2.37
Toora-Khem,100,RU,1579454071,95,52.47,96.11,-4.05,1.14
Aripuana,68,BR,1579454071,45,-9.17,-60.63,95.65,1.74
Lexington,90,US,1579453806,62,37.99,-84.48,28.0,12.75
Leningori,90,GE,1579454071,88,42.13,44.48,35.6,4.7
Eresos,40,GR,1579454071,66,39.17,25.93,50.0,10.29
Semey,98,KZ,1579454072,95,50.41,80.23,15.22,8.34
Tepusteca,40,HN,1579454072,65,15.42,-86.32,82.4,2.24
America Dourada,2,BR,1579454072,35,-11.46,-41.44,88.47,10.27
Liverpool,75,GB,1579453979,100,53.41,-2.98,42.01,5.82
Fort Nelson,20,CA,1579454072,74,58.81,-122.7,-23.8,3.36
Lumphat,0,KH,1579454072,67,13.49,106.98,68.22,9.35
Shaunavon,42,CA,1579454072,97,49.65,-108.42,-3.75,10.58
Keti Bandar,0,PK,1579454072,34,24.14,67.45,64.83,3.98
Cairns,82,AU,1579453810,83,-16.92,145.77,78.8,5.82
Seoul,1,KR,1579453952,92,37.57,126.98,35.6,2.84
Newport,0,GB,1579453982,75,51.59,-3.0,41.0,3.47
Hong Gai,75,VN,1579454073,82,20.96,107.09,62.6,4.7
Zhigansk,100,RU,1579454073,95,66.77,123.37,-11.38,13.94
Sandacho,90,JP,1579454073,66,34.88,135.23,48.2,13.87
Hendek,75,TR,1579454073,80,40.8,30.75,41.0,0.56
Howard Springs,90,AU,1579454073,78,-12.5,131.05,82.99,14.99
Puerto Cabezas,75,NI,1579454074,88,14.04,-83.39,82.4,11.41
Tucumcari,1,US,1579454074,59,35.17,-103.72,37.4,11.41
Vardo,0,NO,1579454033,92,70.37,31.11,15.8,35.57
Mazamari,77,PE,1579454074,65,-11.33,-74.53,77.94,0.65
Nizhnyaya Poyma,100,RU,1579454074,79,56.16,97.19,15.55,11.41
Killybegs,40,IE,1579454074,75,54.63,-8.45,44.6,4.7
Tabory,58,RU,1579454074,89,58.52,64.55,-0.11,4.72
Cedar City,1,US,1579453997,79,37.68,-113.06,28.99,3.29
Bucak,0,TR,1579454074,68,37.46,30.59,51.8,11.41
Sobolevo,41,RU,1579454075,95,54.43,31.9,27.54,6.13
Yola,0,NG,1579454075,24,9.2,12.48,79.05,2.82
Anamur,75,TR,1579454075,100,36.08,32.84,48.2,2.24
Godfrey,1,US,1579454075,56,38.96,-90.19,21.0,11.41
Nador,40,MA,1579454075,67,35.17,-2.93,57.99,11.41
Omsukchan,20,RU,1579454075,100,62.53,155.8,-30.33,3.94
Maracaju,94,BR,1579454075,60,-21.61,-55.17,88.18,3.51
Tsalenjikha,0,GE,1579454075,48,42.6,42.07,42.8,14.99
Ciudad Lazaro Cardenas,100,MX,1579454075,47,17.96,-102.2,88.61,0.94
Sao Joao da Barra,75,BR,1579454076,54,-21.64,-41.05,82.4,16.11
Kumul,0,CN,1579454076,47,42.8,93.45,16.68,5.28
Lebanon,1,US,1579453899,47,36.21,-86.29,36.0,6.93
Aurdal,88,NO,1579454076,71,60.92,9.42,26.01,4.0
Tautira,40,PF,1579454076,78,-17.73,-149.15,80.01,2.24
Aswan,0,EG,1579454076,37,24.09,32.91,62.6,9.17
Nizhniy Tsasuchey,59,RU,1579454076,79,50.52,115.13,-3.42,7.7
Ushtobe,100,KZ,1579454077,73,45.25,77.98,16.25,3.36
Maple Creek,28,CA,1579454077,81,49.92,-109.48,7.12,3.09
Killam,97,CA,1579454077,64,52.78,-111.85,-11.0,1.99
Greifswald,37,DE,1579454077,89,54.1,13.38,39.0,7.31
Uyemskiy,90,RU,1579454077,85,64.47,40.85,17.6,11.18
Antofagasta,40,CL,1579454077,65,-23.65,-70.4,77.0,10.29
Simi,32,SL,1579454077,13,9.57,-12.35,96.22,1.43
Silale,69,LT,1579454077,98,55.49,22.18,35.44,4.88
Kharp,49,RU,1579454078,93,66.8,65.81,0.59,11.23
Kappeln,13,DE,1579454078,86,54.66,9.93,41.0,10.29
Lengshuijiang,49,CN,1579454078,77,27.69,111.43,42.01,1.21
Varkaus,100,FI,1579454078,98,62.33,27.87,30.0,4.0
Bosobolo,36,CD,1579453865,31,4.18,19.9,82.69,1.19
Walvis Bay,13,NA,1579454078,60,-22.96,14.51,71.6,11.41
Broome,90,US,1579454078,68,42.25,-75.83,32.0,19.46
Nyurba,12,RU,1579454078,92,63.28,118.33,-14.91,5.32
Natitingou,0,BJ,1579454079,14,10.3,1.38,87.8,6.93
Palora,90,EC,1579454079,83,-1.7,-77.93,73.4,2.24
Arrondissement du Havre,20,FR,1579454079,81,49.58,0.33,42.8,14.99
Salta,75,AR,1579454079,54,-24.79,-65.41,84.2,5.82
Savannah Bight,61,HN,1579454079,71,16.45,-85.85,80.06,6.62
Gazojak,97,TM,1579454079,89,41.19,61.4,35.67,0.83
Chernogorsk,97,RU,1579454079,84,53.82,91.28,1.4,6.76
Lebu,14,CL,1579454079,32,-37.62,-73.65,71.98,10.8
Vic,20,ES,1579453928,36,41.93,2.25,53.01,26.4
Whitianga,0,NZ,1579454080,90,-36.83,175.7,59.0,4.29
Leshukonskoye,82,RU,1579454080,88,64.9,45.76,4.8,5.86
Bandhi,58,PK,1579454080,55,26.59,68.3,60.8,4.7
Marsaxlokk,20,MT,1579453992,71,35.84,14.54,57.0,2.24
Mikhaylovka,58,RU,1579454080,95,50.06,43.24,24.91,7.25
Billings,20,US,1579453868,58,45.78,-108.5,25.0,23.04
Kasongo,100,CD,1579454080,93,-4.45,26.67,70.77,2.39
Nemuro,100,JP,1579454080,73,43.32,145.57,28.44,10.38
Rosetta,40,EG,1579454081,67,31.4,30.42,59.0,8.05
Bud,90,US,1579454081,78,39.45,-86.18,14.0,13.87
Tambopata,24,PE,1579454081,38,-12.73,-69.18,98.08,3.06
High Level,75,CA,1579454081,83,58.52,-117.14,-9.4,13.87
Camacupa,81,AO,1579454057,90,-12.02,17.48,66.6,3.38
Koubia,42,GN,1579454081,15,11.58,-11.9,85.06,1.88
Camp Verde,1,US,1579454081,23,34.56,-111.85,53.01,13.87
Tecpan,75,GT,1579454081,64,14.76,-90.99,70.0,23.04
Northam,0,GB,1579454082,90,51.03,-4.22,42.01,1.99
Obidos,98,BR,1579454082,51,-1.92,-55.52,92.28,5.21
Manaus,75,BR,1579453869,79,-3.1,-60.02,84.2,4.7
Ugoofaaru,77,MV,1579454082,77,5.67,73.0,82.99,18.07
Ulladulla,71,AU,1579454082,100,-35.35,150.47,66.99,4.43
Winsum,75,NL,1579454082,86,53.33,6.52,43.0,3.36
Dillon,75,US,1579454083,72,34.42,-79.37,63.0,13.87
Jijiang,28,CN,1579454083,75,29.29,106.25,42.8,6.71
Carutapera,100,BR,1579454083,77,-1.2,-46.02,82.85,17.09
Pocone,49,BR,1579454083,42,-16.26,-56.62,95.77,2.24
Bamnet Narong,1,TH,1579454083,54,15.5,101.69,73.09,7.05
Utete,63,TZ,1579454083,92,-7.99,38.76,76.87,3.69
Avera,40,US,1579454084,53,33.19,-82.53,55.4,13.87
Gazli,100,UZ,1579454084,65,40.13,63.45,39.36,2.33
Aranda de Duero,16,ES,1579453889,61,41.67,-3.69,30.07,22.53
Ponta Delgada,75,PT,1579454084,77,37.73,-25.67,64.4,14.99
Kasempa,63,ZM,1579454084,94,-13.46,25.83,66.69,5.46
San Cristobal,40,VE,1579454084,78,7.77,-72.22,80.6,5.82
Anloga,20,GH,1579454020,66,5.79,0.9,87.8,8.05
Yangi Marg`ilon,100,UZ,1579454084,43,40.43,71.72,33.8,2.24
Williams Lake,75,CA,1579454084,74,52.14,-122.14,33.8,20.8
Asau,90,RO,1579454085,80,46.43,26.4,33.8,3.36
Owatonna,75,US,1579454085,84,44.08,-93.23,8.01,10.29
Yangjiang,18,CN,1579454085,79,21.85,111.97,55.04,3.56
Vila do Maio,17,CV,1579454085,42,15.13,-23.22,82.4,12.75
Bilibino,100,RU,1579454085,97,68.05,166.44,-22.27,3.22
Perth,0,AU,1579453880,68,-31.93,115.83,66.2,8.05
Plettenberg Bay,95,ZA,1579454085,81,-34.05,23.37,65.62,22.75
Mizdah,100,LY,1579454085,55,31.45,12.98,50.18,10.22
La Paz,40,BO,1579454086,51,-16.5,-68.15,59.0,11.41
Itarema,95,BR,1579454086,64,-2.92,-39.92,86.36,12.44
Riviere-au-Renard,90,CA,1579454086,78,49.0,-64.4,12.2,4.7
Manbij,90,SY,1579454086,93,36.53,37.95,37.4,6.93
San Patricio,40,MX,1579454086,74,19.22,-104.7,80.6,6.93
Alice Springs,50,AU,1579454086,57,-23.7,133.88,75.2,5.82
Machali,75,CL,1579454086,44,-34.18,-70.67,77.0,6.93
Sibolga,87,ID,1579454086,96,1.74,98.78,72.1,2.84
Dzilam Gonzalez,1,MX,1579454086,76,21.28,-88.93,76.24,10.6
Poronaysk,100,RU,1579454087,88,49.22,143.12,6.12,4.56
Yumen,0,CN,1579454087,78,40.28,97.2,13.19,9.37
Cho Dok,23,VN,1579454087,83,10.7,105.12,72.01,5.21
Culpeper,90,US,1579454087,55,38.5,-77.97,51.01,19.46
Ribas do Rio Pardo,42,BR,1579454087,52,-20.44,-53.76,89.37,5.5
Wufeng,100,CN,1579454087,93,27.45,104.83,35.47,2.39
Cam Ranh,20,VN,1579454087,69,11.92,109.16,77.0,9.17
Ponazyrevo,100,RU,1579454088,97,58.36,46.31,31.96,7.16
Teeli,100,RU,1579454088,80,51.03,90.23,4.82,3.91
Tarkwa,76,GH,1579454088,72,5.31,-1.98,82.96,7.02
Annau,90,TM,1579454088,65,37.89,58.52,44.6,2.24
Portlethen,99,GB,1579454088,60,57.05,-2.13,44.01,2.24
Marzuq,4,YE,1579454088,79,14.4,46.47,58.53,3.91
Karasburg,0,NA,1579454088,31,-28.02,18.75,75.34,15.37
Pilani,25,IN,1579454088,43,28.37,75.6,51.75,3.8
Portland,75,US,1579453762,100,45.52,-122.68,46.99,3.36
Cangucu,20,BR,1579454089,62,-31.39,-52.68,86.0,9.17
Bogashevo,75,RU,1579454089,78,56.37,85.14,8.6,11.18
Forsytheganj,0,BY,1579454089,84,52.63,29.73,28.02,3.74
Sao Joao Evangelista,57,BR,1579454089,86,-18.55,-42.76,77.11,4.54
Oloron-Sainte-Marie,89,FR,1579454089,56,43.19,-0.61,48.2,8.05
Mount Isa,99,AU,1579454089,35,-20.73,139.5,84.2,6.6
Angol,41,CL,1579454089,15,-37.8,-72.72,86.99,9.01
Amalapuram,20,IN,1579454089,74,16.58,82.02,78.8,5.82
Timra,75,SE,1579454090,67,62.49,17.33,41.0,5.82
Atambua,73,ID,1579454090,91,-9.11,124.89,76.14,2.37
Kailua,90,US,1579454090,60,21.4,-157.74,72.0,16.11
Horta,75,PT,1579454090,82,38.53,-28.63,66.2,16.11
Oranjemund,2,NA,1579454090,73,-28.55,16.43,64.9,8.19
Reichenbach an der Fils,40,DE,1579454090,96,48.71,9.46,37.99,2.24
Aalborg,15,DK,1579453900,89,57.05,9.92,41.0,7.49
Lerwick,75,GB,1579454090,76,60.15,-1.15,48.2,32.21
Orativ,90,UA,1579454090,86,49.19,29.53,26.6,2.46
Krieglach,100,AT,1579454091,48,47.53,15.55,39.2,9.17
Dunedin,81,NZ,1579454091,94,-45.87,170.5,57.0,3.0
Riosucio,40,CO,1579454091,65,5.42,-75.7,80.6,6.93
Paita,36,PE,1579454091,100,-5.09,-81.11,62.6,18.34
Sisimiut,99,GL,1579454091,91,66.94,-53.67,-3.86,10.58
Chitral,92,PK,1579454091,47,35.85,71.79,4.55,4.25
Bay City,90,US,1579454091,79,43.59,-83.89,23.0,9.17
Berbera,14,SO,1579454091,74,10.44,45.01,76.28,11.68
Izhevskoye,29,RU,1579454092,95,54.56,40.87,25.57,7.34
Port-Gentil,20,GA,1579454092,74,-0.72,8.78,86.0,9.17
Cockburn Town,0,TC,1579454092,73,21.46,-71.14,75.31,20.87
Imbituba,40,BR,1579454092,58,-28.24,-48.67,84.2,11.41
Sawakin,94,SD,1579454092,76,19.11,37.33,73.06,18.32
Najran,0,SA,1579453921,14,17.49,44.13,75.2,6.93
